stations:
  - station_id: KNYC
    city_id: nyc
    station_name: Central Park
    network: nws
    timezone_name: America/New_York
    lat: 40.7790
    lon: -73.9692
    is_primary: true
    notes: "Representative NYC climate station; verify against specific Kalshi contract rules."
  - station_id: KORD
    city_id: chi
    station_name: Chicago O'Hare International Airport
    network: nws
    timezone_name: America/Chicago
    lat: 41.9786
    lon: -87.9048
    is_primary: false
    notes: "Secondary Chicago station; settlement contracts track Midway, not O'Hare."
  - station_id: KMDW
    city_id: chi
    station_name: Chicago Midway International Airport
    network: nws
    timezone_name: America/Chicago
    lat: 41.7868
    lon: -87.7522
    is_primary: true
    notes: "Settlement station for Kalshi Chicago high-temperature markets."
  - station_id: KMIA
    city_id: mia
    station_name: Miami International Airport
    network: nws
    timezone_name: America/New_York
    lat: 25.7959
    lon: -80.2870
    is_primary: true
    notes: "Default Miami settlement proxy pending exact contract rule verification."
  - station_id: KCQT
    city_id: lax
    station_name: Downtown Los Angeles USC Campus / CQT area proxy
    network: nws
    timezone_name: America/Los_Angeles
    lat: 34.0236
    lon: -118.2911
    is_primary: false
    notes: "Secondary LA climate station; settlement contracts track KLAX."
  - station_id: KLAX
    city_id: lax
    station_name: Los Angeles International Airport
    network: nws
    timezone_name: America/Los_Angeles
    lat: 33.9425
    lon: -118.4081
    is_primary: true
    notes: "Settlement station for Kalshi Los Angeles high-temperature markets."
  - station_id: KDCA
    city_id: dc
    station_name: Ronald Reagan Washington National Airport
    network: nws
    timezone_name: America/New_York
    lat: 38.8521
    lon: -77.0377
    is_primary: true
    notes: "Settlement station for Kalshi DC high-temperature markets."
  - station_id: KBOS
    city_id: bos
    station_name: Boston Logan International Airport
    network: nws
    timezone_name: America/New_York
    lat: 42.3601
    lon: -71.0105
    is_primary: true
    notes: "Settlement station for Kalshi Boston high-temperature markets."
  - station_id: KDAL
    city_id: dal
    station_name: Dallas Love Field
    network: nws
    timezone_name: America/Chicago
    lat: 32.8471
    lon: -96.8517
    is_primary: true
    notes: "Default Dallas settlement proxy pending exact contract rule verification."
  - station_id: KAUS
    city_id: aus
    station_name: Austin-Bergstrom International Airport
    network: nws
    timezone_name: America/Chicago
    lat: 30.1945
    lon: -97.6699
    is_primary: true
    notes: "Default Austin settlement proxy pending exact contract rule verification."
  - station_id: KDEN
    city_id: den
    station_name: Denver International Airport
    network: nws
    timezone_name: America/Denver
    lat: 39.8561
    lon: -104.6737
    is_primary: true
    notes: "Default Denver settlement proxy pending exact contract rule verification."
  - station_id: KPHL
    city_id: phl
    station_name: Philadelphia International Airport
    network: nws
    timezone_name: America/New_York
    lat: 39.8721
    lon: -75.2411
    is_primary: true
    notes: "Default Philadelphia settlement proxy pending exact contract rule verification."
  - station_id: KHOU
    city_id: hou
    station_name: William P. Hobby Airport
    network: nws
    timezone_name: America/Chicago
    lat: 29.6454
    lon: -95.2789
    is_primary: true
    notes: "Default Houston settlement proxy pending exact contract rule verification."
  - station_id: KSEA
    city_id: sea
    station_name: Seattle-Tacoma International Airport
    network: nws
    timezone_name: America/Los_Angeles
    lat: 47.4447
    lon: -122.3136
    is_primary: true
    notes: "Settlement station for Kalshi Seattle high-temperature markets."
  - station_id: KATL
    city_id: atl
    station_name: Hartsfield-Jackson Atlanta International Airport
    network: nws
    timezone_name: America/New_York
    lat: 33.6367
    lon: -84.4281
    is_primary: true
    notes: "Settlement station for Kalshi Atlanta high-temperature markets."
